{
    "restaurants": [
        {
            "name": "Truly Sichuan",
            "hours": "ToDo",
            "address": "31 Chestnut St, Ridgewood, NJ",
            "longitude": "-74.118880",
            "latitude": "40.980420",
            "image": "restaurantImages/TrulySichuan.jpg",
            "ethnicity": "Chinese",
            "website": "https://www.trulysichuan.com"
        },
        {
            "name": "Dim Sum Dynasty",
            "hours": "ToDo",
            "address": "53 Franklin Ave Unit B, Ridgewood, NJ",
            "longitude": "-74.118190",
            "latitude": "40.981460",
            "image": "restaurantImages/DimSumDynasty.jpg",
            "ethnicity": "Chinese",
            "website": "https://www.dimsumdynastyridgewoodnj.com/"
        },
        {
            "name": "Los Andes Restaurant",
            "hours": "ToDo",
            "address": "1844 Deer Park Ave, Deer Park, NY",
            "longitude": "-73.328630",
            "latitude": "40.759260",
            "image": "restaurantImages/LosAndes.jpg",
            "ethnicity": "Peruvian",
            "website": "http://places.singleplatform.com/los-andes-restaurant-4/menu?ref=google"
        },
        {
            "name": "So Gong Dong",
            "hours": "ToDo",
            "address": "450 Hackensack Ave. #22, Hackensack, NJ",
            "longitude": "-74.029970",
            "latitude": "40.863350",
            "image": "restaurantImages/SoGongDong.jpg",
            "ethnicity": "Korean",
            "website": "https://www.sgdrestaurant.com"
        },
        {
            "name": "Ridge Thai",
            "hours": "ToDo",
            "address": "50 Chestnut St, Ridgewood, NJ",
            "longitude": "-74.119300",
            "latitude": "40.980770",
            "image": "restaurantImages/RidgeThai.jpg",
            "ethnicity": "Thai",
            "website": "http://ridgethai.com/menu.html"
        }
    ]
}